system:index,City,Latitude,Longitude,Population,average_masked_max,average_masked_mean,average_masked_min,average_masked_stdDev,city,.geo
0000000000000000001d,Rājkot,22.2969,70.7984,2043000,39.132835388183594,4.546499980412827,0.0,6.201298468091588,Rājkot,"{""type"":""MultiPoint"",""coordinates"":[]}"
00000000000000000005,Ahmedabad,23.0219,72.5797,9272670,111.9651107788086,16.800403841192974,0.0,14.276082100147724,Ahmedabad,"{""type"":""MultiPoint"",""coordinates"":[]}"
0000000000000000000a,Kanpur,24.285,72.6933,5230000,42.06622314453125,0.6353890322713137,0.0,1.836391210793279,Kanpur,"{""type"":""MultiPoint"",""coordinates"":[]}"
00000000000000000036,Vasai-Virar,19.47,72.8,1221233,45.904624938964844,3.032498878417809,0.0,5.890305061055918,Vasai-Virar,"{""type"":""MultiPoint"",""coordinates"":[]}"
00000000000000000120,Sursi,22.3888,72.813,4771,21.061931610107422,1.8662120114398033,0.0,2.1700070228225727,Sursi,"{""type"":""MultiPoint"",""coordinates"":[]}"
000000000000000000a1,Damān,20.4169,72.834,44282,44.752994537353516,3.10083011256984,0.0,5.420031685117197,Damān,"{""type"":""MultiPoint"",""coordinates"":[]}"
00000000000000000008,Sūrat,21.205,72.84,6538000,177.1905517578125,9.937994573228796,0.0,11.747233473174411,Sūrat,"{""type"":""MultiPoint"",""coordinates"":[]}"
00000000000000000048,Bhayandar,19.3,72.85,814655,81.48036193847656,9.739264406350152,0.0,13.36291161068475,Bhayandar,"{""type"":""MultiPoint"",""coordinates"":[]}"
00000000000000000000,Mumbai,19.0758,72.8775,24973000,203.9615478515625,19.622484490566965,0.0,20.351531690831774,Mumbai,"{""type"":""MultiPoint"",""coordinates"":[]}"
00000000000000000071,Wāpi,20.3667,72.9,230000,44.752994537353516,4.170363551063352,0.0,5.692250821744076,Wāpi,"{""type"":""MultiPoint"",""coordinates"":[]}"
0000000000000000013d,Gorwa,22.5066,72.9155,3569,89.43598175048828,3.590587925286884,0.0,4.522641198884063,Gorwa,"{""type"":""MultiPoint"",""coordinates"":[]}"
00000000000000000022,Thāne,19.18,72.9633,1886941,203.9615478515625,20.489900864268453,0.0,18.19554679878552,Thāne,"{""type"":""MultiPoint"",""coordinates"":[]}"
000000000000000000c4,Anghad,22.3913,72.9946,19805,281.93316650390625,5.6753863741213335,0.0,11.275856248175874,Anghad,"{""type"":""MultiPoint"",""coordinates"":[]}"
00000000000000000040,Jodhpur,26.2944,73.0278,1033918,82.31854248046875,6.794847232338276,0.0,10.654370621879197,Jodhpur,"{""type"":""MultiPoint"",""coordinates"":[]}"
00000000000000000145,Mamnoli,19.2404,73.045,3421,75.27545928955078,13.77999978012145,0.0,13.59940374188918,Mamnoli,"{""type"":""MultiPoint"",""coordinates"":[]}"
00000000000000000033,Kalyān,19.25,73.15,1246381,73.8147964477539,10.043663216123898,0.0,11.609066157296473,Kalyān,"{""type"":""MultiPoint"",""coordinates"":[]}"
00000000000000000055,Ulhāsnagar,19.2167,73.15,506098,73.8147964477539,11.4042580740652,0.0,12.42439740489284,Ulhāsnagar,"{""type"":""MultiPoint"",""coordinates"":[]}"
00000000000000000069,Amarnāth,19.209,73.186,253475,73.8147964477539,9.24284364428198,0.0,10.677776680614796,Amarnāth,"{""type"":""MultiPoint"",""coordinates"":[]}"
0000000000000000000d,Vadodara,22.3,73.2,3500000,281.93316650390625,8.64797624200872,0.0,13.107713259889206,Vadodara,"{""type"":""MultiPoint"",""coordinates"":[]}"
0000000000000000002c,Nāsik,20.0,73.7833,1486053,58.476104736328125,5.272066033495545,0.0,7.529310790254585,Nāsik,"{""type"":""MultiPoint"",""coordinates"":[]}"
00000000000000000026,Pimpri-Chinchwad,18.6278,73.8131,1729320,124.77676391601562,16.859542389345744,0.0,12.970986321787102,Pimpri-Chinchwad,"{""type"":""MultiPoint"",""coordinates"":[]}"
00000000000000000006,Pune,18.5211,73.8553,8231000,124.77676391601562,15.998113122399838,0.0,13.1478307790602,Pune,"{""type"":""MultiPoint"",""coordinates"":[]}"
00000000000000000039,Srīnagar,34.0911,74.8061,1180570,60.8536262512207,3.703093868712825,0.0,5.317087477372114,Srīnagar,"{""type"":""MultiPoint"",""coordinates"":[]}"
0000000000000000003c,Amritsar,31.6269,74.877,1159227,136.84767150878906,5.458091604926403,0.0,8.124699139949263,Amritsar,"{""type"":""MultiPoint"",""coordinates"":[]}"
000000000000000000bd,Pāmpur,34.02,74.93,21680,60.8536262512207,3.496528589856931,0.0,5.427233828161961,Pāmpur,"{""type"":""MultiPoint"",""coordinates"":[]}"
0000000000000000014e,Sotur,34.0403,75.0738,3115,37.872657775878906,1.0611355040209385,0.0,2.1905966726540984,Sotur,"{""type"":""MultiPoint"",""coordinates"":[]}"
0000000000000000003a,Aurangābād,19.88,75.32,1175116,47.375308990478516,4.953050525906865,0.0,7.516916764228716,Aurangābād,"{""type"":""MultiPoint"",""coordinates"":[]}"
00000000000000000015,Attadappa,11.85,75.4167,2615266,23.902204513549805,0.9825948909576254,0.0,1.5553510063545763,Attadappa,"{""type"":""MultiPoint"",""coordinates"":[]}"
00000000000000000013,Jaipur,26.915,75.82,3073350,78.00666046142578,12.019260859706181,0.0,11.977540890546475,Jaipur,"{""type"":""MultiPoint"",""coordinates"":[]}"
00000000000000000044,Kota,25.18,75.83,1001694,76.37283325195312,4.322345061420791,0.0,7.731420301006956,Kota,"{""type"":""MultiPoint"",""coordinates"":[]}"
00000000000000000029,Ludhiāna,30.9083,75.8486,1618879,46.219871520996094,7.027880777298356,0.0,8.6975239452743,Ludhiāna,"{""type"":""MultiPoint"",""coordinates"":[]}"
0000000000000000001f,Indore,22.7186,75.855,1994397,78.08264923095703,10.124301706978404,0.0,13.697557611024262,Indore,"{""type"":""MultiPoint"",""coordinates"":[]}"
000000000000000000d1,Tillor Khurd,22.617,75.948,15000,78.08264923095703,8.246202976469945,0.0,13.815060030252178,Tillor Khurd,"{""type"":""MultiPoint"",""coordinates"":[]}"
00000000000000000115,Pīpalda,22.5973,76.0415,5579,75.57959747314453,2.9220648305593055,0.0,6.75991438033432,Pīpalda,"{""type"":""MultiPoint"",""coordinates"":[]}"
000000000000000000ef,Kampel,22.6167,76.05,8780,75.57959747314453,3.2929757257605017,0.0,7.659847493935684,Kampel,"{""type"":""MultiPoint"",""coordinates"":[]}"
0000000000000000013b,Permi,22.6204,76.1126,3697,25.37912940979004,1.28238593388692,0.0,2.230544757142896,Permi,"{""type"":""MultiPoint"",""coordinates"":[]}"
00000000000000000010,Kannankulam,10.4799,76.1131,3243170,27.641128540039062,1.8393330300604254,0.0,2.1727831931178203,Kannankulam,"{""type"":""MultiPoint"",""coordinates"":[]}"
0000000000000000010c,Shivni,22.671,76.1391,6432,16.1299991607666,1.2477311630980767,0.0,1.7071303393183115,Shivni,"{""type"":""MultiPoint"",""coordinates"":[]}"
000000000000000000ae,Elangunnapuzha,10.0167,76.2167,26997,128.56398010253906,4.294448922939149,0.0,8.03062352349934,Elangunnapuzha,"{""type"":""MultiPoint"",""coordinates"":[]}"
000000000000000000b7,Edavanakad,10.015,76.22,24856,128.56398010253906,4.397439029787817,0.0,8.343976447647618,Edavanakad,"{""type"":""MultiPoint"",""coordinates"":[]}"
00000000000000000080,Vypīn,9.9833,76.2417,176567,146.25064086914062,4.738450335306149,0.0,8.910458836913563,Vypīn,"{""type"":""MultiPoint"",""coordinates"":[]}"
0000000000000000004f,Kochi,9.9667,76.2833,677381,146.25064086914062,4.994116882998452,0.0,8.8168667488954,Kochi,"{""type"":""MultiPoint"",""coordinates"":[]}"
000000000000000000a8,Edappalli,9.8167,76.3,33829,146.25064086914062,3.1229212464990224,0.0,8.208991284789985,Edappalli,"{""type"":""MultiPoint"",""coordinates"":[]}"
000000000000000000c1,Kandakkadava,9.7,76.3,20487,10.059211730957031,0.9976811419278485,0.0,1.3482487823261593,Kandakkadava,"{""type"":""MultiPoint"",""coordinates"":[]}"
0000000000000000009b,Kalamasseri,10.0614,76.3263,70776,146.25064086914062,5.919635537254588,0.0,8.751015613194888,Kalamasseri,"{""type"":""MultiPoint"",""coordinates"":[]}"
0000000000000000006e,Alleppey,9.4978,76.3286,240991,14.472590446472168,0.8553592178653894,0.0,1.654386758082935,Alleppey,"{""type"":""MultiPoint"",""coordinates"":[]}"
00000000000000000098,Tripunittura,9.9487,76.3464,92521,146.25064086914062,5.198626431893213,0.0,8.726693129229218,Tripunittura,"{""type"":""MultiPoint"",""coordinates"":[]}"
000000000000000000a9,Mannanchōri,9.5764,76.3481,32139,16.223379135131836,1.1751167635379154,0.0,1.8260164288210192,Mannanchōri,"{""type"":""MultiPoint"",""coordinates"":[]}"
000000000000000000e9,Perumbalam,9.8462,76.3591,9733,146.25064086914062,4.038427850746074,0.0,8.662419211538843,Perumbalam,"{""type"":""MultiPoint"",""coordinates"":[]}"
000000000000000000bb,Mūlampilli,10.1083,76.4167,23272,146.25064086914062,4.784094363280888,0.0,8.14179164284402,Mūlampilli,"{""type"":""MultiPoint"",""coordinates"":[]}"
000000000000000000bc,Peringuzha,9.9667,76.4167,22378,146.25064086914062,5.347230334585932,0.0,8.657819866710266,Peringuzha,"{""type"":""MultiPoint"",""coordinates"":[]}"
000000000000000000e4,Nīrkunnam,9.35,76.5167,10770,13.991345405578613,1.6107294872286175,0.0,1.4554410007800895,Nīrkunnam,"{""type"":""MultiPoint"",""coordinates"":[]}"
000000000000000000d0,Valavakāttumūla,9.98,76.52,15966,146.25064086914062,2.831620618738319,0.0,7.3520128857375076,Valavakāttumūla,"{""type"":""MultiPoint"",""coordinates"":[]}"
00000000000000000014,Kottārasshēri,10.6167,76.5333,2952254,16.18124008178711,1.0282881350531081,0.0,1.3525546155418087,Kottārasshēri,"{""type"":""MultiPoint"",""coordinates"":[]}"
000000000000000000ba,Madappalli,9.0833,76.5333,23341,18.19316291809082,1.6745660333424073,0.0,1.6788732349169906,Madappalli,"{""type"":""MultiPoint"",""coordinates"":[]}"
000000000000000000c7,Perunturuttu,9.6333,76.5667,18691,16.371234893798828,1.2362925808619187,0.0,1.3815574133146742,Perunturuttu,"{""type"":""MultiPoint"",""coordinates"":[]}"
0000000000000000005a,Munro Turuttu,8.9884,76.5737,397419,23.44762420654297,2.030126456526242,0.0,2.281347946337709,Munro Turuttu,"{""type"":""MultiPoint"",""coordinates"":[]}"
000000000000000000cd,Cherakara,8.9,76.5833,17342,23.44762420654297,1.7465988861301702,0.0,2.3241814637547984,Cherakara,"{""type"":""MultiPoint"",""coordinates"":[]}"
00000000000000000059,Quilon,8.8853,76.5864,397419,23.44762420654297,1.6944342291192878,0.0,2.316940435636662,Quilon,"{""type"":""MultiPoint"",""coordinates"":[]}"
000000000000000000a6,Perunād,8.9563,76.64,35173,23.44762420654297,2.26537279457825,0.0,2.17661129276955,Perunād,"{""type"":""MultiPoint"",""coordinates"":[]}"
000000000000000000a4,Mayyanād,8.8389,76.6467,40039,23.44762420654297,1.777821994049152,0.0,2.1973445533791645,Mayyanād,"{""type"":""MultiPoint"",""coordinates"":[]}"
00000000000000000131,Kumbalam,8.992,76.6621,4000,23.44762420654297,2.4167368836560255,0.0,2.0975107963547117,Kumbalam,"{""type"":""MultiPoint"",""coordinates"":[]}"
0000000000000000007b,Ittikara,8.8633,76.6972,185008,23.44762420654297,2.0503997488907197,0.0,2.105145701255053,Ittikara,"{""type"":""MultiPoint"",""coordinates"":[]}"
000000000000000000c2,Sohāna,30.6833,76.7,20000,56.13978958129883,10.244831528729204,0.0,11.229701465169573,Sohāna,"{""type"":""MultiPoint"",""coordinates"":[]}"
00000000000000000159,Dhurali,30.6432,76.7032,2691,56.13978958129883,10.358709271333117,0.0,11.241289551329197,Dhurali,"{""type"":""MultiPoint"",""coordinates"":[]}"
0000000000000000011b,Bahlolpur,30.759,76.7034,4993,56.13978958129883,9.503384788582737,0.0,11.338142145767458,Bahlolpur,"{""type"":""MultiPoint"",""coordinates"":[]}"
000000000000000000c0,Palliman,8.9,76.7139,20677,23.44762420654297,2.218764438728002,0.0,2.0156653121858126,Palliman,"{""type"":""MultiPoint"",""coordinates"":[]}"
00000000000000000081,Mauli,30.7194,76.7181,176152,56.13978958129883,10.042497443614732,0.0,11.29273098821962,Mauli,"{""type"":""MultiPoint"",""coordinates"":[]}"
0000000000000000011d,Manauli,30.6444,76.7217,4843,56.13978958129883,10.451439106170177,0.0,11.163935010717095,Manauli,"{""type"":""MultiPoint"",""coordinates"":[]}"
0000000000000000015e,Mota Mazra,30.6214,76.725,2563,56.13978958129883,10.467036335477305,0.0,11.166748202066843,Mota Mazra,"{""type"":""MultiPoint"",""coordinates"":[]}"
0000000000000000012c,Togān,30.7699,76.7336,4197,56.13978958129883,9.922245382307782,0.0,11.325471004030922,Togān,"{""type"":""MultiPoint"",""coordinates"":[]}"
00000000000000000104,Dhanas,30.7688,76.7541,7094,56.13978958129883,10.165650652939869,0.0,11.329408191419054,Dhanas,"{""type"":""MultiPoint"",""coordinates"":[]}"
000000000000000000c3,Khizrpur,30.5843,76.7572,19817,56.13978958129883,9.900978379715559,0.0,11.06049853692576,Khizrpur,"{""type"":""MultiPoint"",""coordinates"":[]}"
0000000000000000013e,Diālpura,30.6395,76.7867,3556,56.13978958129883,10.304726958103924,0.0,11.119828197489236,Diālpura,"{""type"":""MultiPoint"",""coordinates"":[]}"
00000000000000000041,Chandīgarh,30.7364,76.7883,1026459,56.13978958129883,10.192673796678289,0.0,11.255731562696077,Chandīgarh,"{""type"":""MultiPoint"",""coordinates"":[]}"
000000000000000000fa,Bhabāt,30.658,76.8065,7743,56.13978958129883,10.275398651085379,0.0,11.156354801528414,Bhabāt,"{""type"":""MultiPoint"",""coordinates"":[]}"
00000000000000000020,Abhepur,30.6667,76.8333,1895686,56.13978958129883,10.048217412712365,0.0,11.2136173349354,Abhepur,"{""type"":""MultiPoint"",""coordinates"":[]}"
00000000000000000038,Kalleli,9.2,76.8833,1197412,9.272971153259277,0.8507166584384925,0.0,1.0458085507763666,Kalleli,"{""type"":""MultiPoint"",""coordinates"":[]}"
0000000000000000012f,Kair,28.6158,76.91,4074,199.22323608398438,13.464902017919238,0.0,16.865992104191932,Kair,"{""type"":""MultiPoint"",""coordinates"":[]}"
0000000000000000015b,Bendravādi,12.3636,76.9137,2684,54.408592224121094,2.048460941093107,0.0,4.35077263072332,Bendravādi,"{""type"":""MultiPoint"",""coordinates"":[]}"
000000000000000000b6,Ayirūrpāra,8.503,76.9522,25000,60.87819290161133,3.5282881520015903,0.0,5.130782686174929,Ayirūrpāra,"{""type"":""MultiPoint"",""coordinates"":[]}"
0000000000000000004a,Thiruvananthapuram,8.4875,76.9525,743691,60.87819290161133,3.4949071841483326,0.0,5.152907491244048,Thiruvananthapuram,"{""type"":""MultiPoint"",""coordinates"":[]}"
000000000000000000d3,Tonakkal,8.6312,76.9555,13567,60.87819290161133,3.2814823265364144,0.0,4.944086849994841,Tonakkal,"{""type"":""MultiPoint"",""coordinates"":[]}"
0000000000000000001b,Coimbatore,11.0008,76.9633,2136916,48.09990692138672,5.813332995196232,0.0,6.234612991489571,Coimbatore,"{""type"":""MultiPoint"",""coordinates"":[]}"
0000000000000000010d,Daryāpur Kalān,28.7614,76.9842,6310,95.86357879638672,15.245409674219403,0.0,16.838355843344626,Daryāpur Kalān,"{""type"":""MultiPoint"",""coordinates"":[]}"
0000000000000000002f,Najafgarh,28.6125,76.9847,1365152,199.22323608398438,21.613329085559847,0.0,20.5945868888617,Najafgarh,"{""type"":""MultiPoint"",""coordinates"":[]}"
000000000000000000aa,Dharampur,28.6,76.99,30856,199.22323608398438,22.401567985663537,0.0,20.57382295818049,Dharampur,"{""type"":""MultiPoint"",""coordinates"":[]}"
00000000000000000046,Gurgaon,28.4667,77.0333,876824,199.22323608398438,21.053068020564545,0.0,19.022716001579695,Gurgaon,"{""type"":""MultiPoint"",""coordinates"":[]}"
00000000000000000077,Nāngloi Jāt,28.6833,77.0667,205596,199.22323608398438,26.93502914201849,0.0,21.823191507461964,Nāngloi Jāt,"{""type"":""MultiPoint"",""coordinates"":[]}"
00000000000000000083,Sultānpur Mazra,28.6906,77.0778,163716,199.22323608398438,27.213253035060717,0.0,21.75533737825094,Sultānpur Mazra,"{""type"":""MultiPoint"",""coordinates"":[]}"
00000000000000000049,Narela,28.85,77.1,809913,95.86357879638672,12.805799841550668,0.0,14.845930985290916,Narela,"{""type"":""MultiPoint"",""coordinates"":[]}"
000000000000000000b1,Vayakkalattu,8.5285,77.1035,26384,48.87080764770508,2.59800480135736,0.0,4.200673314896452,Vayakkalattu,"{""type"":""MultiPoint"",""coordinates"":[]}"
000000000000000000c9,Mannara,8.5614,77.1263,18343,30.998849868774414,1.6623256246158276,0.0,2.728752217929574,Mannara,"{""type"":""MultiPoint"",""coordinates"":[]}"
00000000000000000092,Delhi Cantonment,28.5903,77.1319,110351,199.22323608398438,35.04451631408671,3.156352996826172,20.011097969846688,Delhi Cantonment,"{""type"":""MultiPoint"",""coordinates"":[]}"
000000000000000000c5,Oruvadālkotta,8.4778,77.1347,19345,48.05803298950195,2.2611382214928972,0.0,3.2309731884652306,Oruvadālkotta,"{""type"":""MultiPoint"",""coordinates"":[]}"
00000000000000000086,Bhālswa Jahangirpur,28.7354,77.1638,151427,126.5588607788086,26.510350476390208,0.0,21.11808400473204,Bhālswa Jahangirpur,"{""type"":""MultiPoint"",""coordinates"":[]}"
000000000000000000d9,Bakhtāwarpur,28.8233,77.1717,12716,95.86357879638672,15.724065121820834,0.0,16.995275749415786,Bakhtāwarpur,"{""type"":""MultiPoint"",""coordinates"":[]}"
00000000000000000076,Shimla,31.1033,77.1722,206575,27.049978256225586,0.6425714517201049,0.0,1.6318090257807385,Shimla,"{""type"":""MultiPoint"",""coordinates"":[]}"
0000000000000000006b,New Delhi,28.6139,77.2089,249998,199.22323608398438,37.58526176513545,0.0,19.393627606322045,New Delhi,"{""type"":""MultiPoint"",""coordinates"":[]}"
00000000000000000002,Delhi,28.66,77.23,16349831,199.22323608398438,35.2248337246025,2.2353827953338623,20.9674863707215,Delhi,"{""type"":""MultiPoint"",""coordinates"":[]}"
000000000000000000b9,Madangir,28.57,77.23,23448,199.22323608398438,36.703581718594386,0.0,20.233963981827397,Madangir,"{""type"":""MultiPoint"",""coordinates"":[]}"
0000000000000000007a,Murtazābād,28.7111,77.2688,189117,119.13768005371094,28.725129605946076,0.0,21.73334357029862,Murtazābād,"{""type"":""MultiPoint"",""coordinates"":[]}"
00000000000000000054,Loni,28.75,77.28,516082,119.13768005371094,23.214618056923307,0.0,21.783708529983087,Loni,"{""type"":""MultiPoint"",""coordinates"":[]}"
0000000000000000002d,Farīdābād,28.4167,77.3,1404653,93.31974029541016,17.74858759157893,0.0,16.422034854125737,Farīdābād,"{""type"":""MultiPoint"",""coordinates"":[]}"
0000000000000000008c,Mandoli,28.7075,77.3003,120417,119.13768005371094,28.053433799430007,0.0,21.691716925040183,Mandoli,"{""type"":""MultiPoint"",""coordinates"":[]}"
0000000000000000008b,Dalūpura,28.6067,77.3189,132628,160.7947540283203,32.399415592141374,0.0,19.46606882209181,Dalūpura,"{""type"":""MultiPoint"",""coordinates"":[]}"
0000000000000000011c,Sondekoppa,13.0,77.3667,4866,106.12422943115234,11.255749832066396,0.0,18.126374387730138,Sondekoppa,"{""type"":""MultiPoint"",""coordinates"":[]}"
0000000000000000000e,Nādampālaiyam,11.1793,77.376,3458045,45.12118911743164,3.554331844655878,0.0,4.50194824354447,Nādampālaiyam,"{""type"":""MultiPoint"",""coordinates"":[]}"
00000000000000000126,Basavanhalli,13.1104,77.3877,4510,106.12422943115234,8.545719626768047,0.0,14.903506340331921,Basavanhalli,"{""type"":""MultiPoint"",""coordinates"":[]}"
0000000000000000014f,Vājarhalli,13.1022,77.4111,3009,106.12422943115234,11.121564574710485,0.0,17.761217381556634,Vājarhalli,"{""type"":""MultiPoint"",""coordinates"":[]}"
0000000000000000001a,Ghāziābād,28.6667,77.4167,2375820,114.24181365966797,23.2529820341331,0.0,19.630929108649134,Ghāziābād,"{""type"":""MultiPoint"",""coordinates"":[]}"
00000000000000000023,Bhopāl,23.25,77.4167,1798218,67.0044937133789,7.302652253778806,0.0,9.891676425077563,Bhopāl,"{""type"":""MultiPoint"",""coordinates"":[]}"
00000000000000000155,Kitanelli,13.0095,77.4191,2827,106.12422943115234,16.661338275709372,0.0,21.637238335999214,Kitanelli,"{""type"":""MultiPoint"",""coordinates"":[]}"
00000000000000000124,Kadabgeri,12.9965,77.4331,4573,106.12422943115234,18.924719899551647,0.0,22.862927026552857,Kadabgeri,"{""type"":""MultiPoint"",""coordinates"":[]}"
000000000000000000f9,Mādnāikanhalli,13.0626,77.4642,7805,122.92369079589844,20.01768878119058,0.0,23.271098763129554,Mādnāikanhalli,"{""type"":""MultiPoint"",""coordinates"":[]}"
0000000000000000015d,Kodagihalli,12.9771,77.4651,2585,122.92369079589844,23.290494511545987,0.0,24.14759965715224,Kodagihalli,"{""type"":""MultiPoint"",""coordinates"":[]}"
00000000000000000150,Cāchohalli,13.001,77.4717,2946,122.92369079589844,23.87767954863261,0.0,24.09773649403539,Cāchohalli,"{""type"":""MultiPoint"",""coordinates"":[]}"
00000000000000000123,Mādavar,13.0525,77.4732,4678,122.92369079589844,21.740824971597494,0.0,23.68546519888123,Mādavar,"{""type"":""MultiPoint"",""coordinates"":[]}"
000000000000000000ec,Hesarghatta,13.1391,77.4783,9485,122.92369079589844,14.487770849970975,0.0,19.591357557304228,Hesarghatta,"{""type"":""MultiPoint"",""coordinates"":[]}"
00000000000000000151,Kasgatpur,13.1101,77.5045,2852,122.92369079589844,19.36534099198577,0.0,22.57110388936484,Kasgatpur,"{""type"":""MultiPoint"",""coordinates"":[]}"
0000000000000000004c,Sahāranpur,29.964,77.546,705478,62.343326568603516,3.2855490313850573,0.0,6.23566292933975,Sahāranpur,"{""type"":""MultiPoint"",""coordinates"":[]}"
0000000000000000011a,Bayandhalli,12.9779,77.5688,5118,132.3131561279297,33.09596353093895,2.08309268951416,23.167556396011694,Bayandhalli,"{""type"":""MultiPoint"",""coordinates"":[]}"
00000000000000000004,Bangalore,12.9791,77.5913,10456000,132.3131561279297,34.03274621727448,2.6374034881591797,22.61421187056715,Bangalore,"{""type"":""MultiPoint"",""coordinates"":[]}"
00000000000000000064,Yelahanka,13.1139,77.5983,300000,231.87803649902344,24.003277289388798,0.0,24.727463322427333,Yelahanka,"{""type"":""MultiPoint"",""coordinates"":[]}"
00000000000000000139,Doddajīvanhalli,13.0086,77.6143,3792,132.3131561279297,33.766993309882615,0.0,22.7768149817213,Doddajīvanhalli,"{""type"":""MultiPoint"",""coordinates"":[]}"
00000000000000000132,Sonnappanhalli,13.1557,77.6179,3996,231.87803649902344,18.031956739493804,0.0,21.814291939547555,Sonnappanhalli,"{""type"":""MultiPoint"",""coordinates"":[]}"
00000000000000000101,Kādiganahalli,13.1687,77.6283,7225,231.87803649902344,16.058467752589966,0.0,20.47862346834811,Kādiganahalli,"{""type"":""MultiPoint"",""coordinates"":[]}"
0000000000000000014a,Huttanhalli,13.1651,77.6512,3240,231.87803649902344,16.21464780093716,0.0,20.50208049832485,Huttanhalli,"{""type"":""MultiPoint"",""coordinates"":[]}"
000000000000000000fe,Bāgalūr,13.1328,77.6685,7519,231.87803649902344,19.93179308473073,0.0,22.369048458397458,Bāgalūr,"{""type"":""MultiPoint"",""coordinates"":[]}"
0000000000000000015f,Mailanhalli,13.1863,77.6963,2543,231.87803649902344,12.535193658706405,0.0,17.727377235669277,Mailanhalli,"{""type"":""MultiPoint"",""coordinates"":[]}"
0000000000000000002a,Meerut,28.98,77.7064,1571434,63.184329986572266,5.313855552003868,0.0,6.91850218905134,Meerut,"{""type"":""MultiPoint"",""coordinates"":[]}"
00000000000000000028,Harbatpur,30.45,77.73,1696694,31.897903442382812,1.3135945963832205,0.0,2.246227899233109,Harbatpur,"{""type"":""MultiPoint"",""coordinates"":[]}"
000000000000000000e0,Akola,27.0655,77.8808,11351,53.93385696411133,4.10449751610479,0.0,7.467936752872968,Akola,"{""type"":""MultiPoint"",""coordinates"":[]}"
00000000000000000021,Gumānwāla,29.9333,77.9,1890422,46.33570861816406,3.7642977126933124,0.0,5.267894539433077,Gumānwāla,"{""type"":""MultiPoint"",""coordinates"":[]}"
00000000000000000027,Saundhonwāli,30.3331,77.9608,1696694,41.98568344116211,4.330698214165795,0.0,7.368622275991239,Saundhonwāli,"{""type"":""MultiPoint"",""coordinates"":[]}"
00000000000000000024,Āgra,27.18,78.02,1760285,53.93385696411133,5.8779770005039245,0.0,8.485964071431638,Āgra,"{""type"":""MultiPoint"",""coordinates"":[]}"
00000000000000000108,Vīrapāndi,11.5757,78.0729,6862,42.779327392578125,3.6778525253641763,0.0,4.503726207008304,Vīrapāndi,"{""type"":""MultiPoint"",""coordinates"":[]}"
000000000000000000a0,Tirupparangunram,9.8815,78.0731,51543,43.6648063659668,3.153548221880299,0.0,4.296122506107239,Tirupparangunram,"{""type"":""MultiPoint"",""coordinates"":[]}"
0000000000000000015c,Nedumadurai,9.7959,78.0867,2593,43.6648063659668,2.6717744209362677,0.0,4.329472423480367,Nedumadurai,"{""type"":""MultiPoint"",""coordinates"":[]}"
00000000000000000113,Valaiyankulam,9.8082,78.094,5712,43.6648063659668,2.826753919222601,0.0,4.359271853504673,Valaiyankulam,"{""type"":""MultiPoint"",""coordinates"":[]}"
00000000000000000025,Peyanvilai,8.5674,78.1046,1750176,32.60924530029297,1.2488298307822527,0.0,2.2868612905292096,Peyanvilai,"{""type"":""MultiPoint"",""coordinates"":[]}"
000000000000000000d7,Neykkārappatti,11.6225,78.1058,13027,42.779327392578125,3.724280072528313,0.0,4.511704471210691,Neykkārappatti,"{""type"":""MultiPoint"",""coordinates"":[]}"
0000000000000000002b,Madurai,9.9197,78.1194,1561129,43.6648063659668,3.254160114401898,0.0,4.275795183629581,Madurai,"{""type"":""MultiPoint"",""coordinates"":[]}"
00000000000000000144,Solankuruni,9.8067,78.1198,3422,43.6648063659668,2.829861458370747,0.0,4.35819690084268,Solankuruni,"{""type"":""MultiPoint"",""coordinates"":[]}"
0000000000000000011e,Parappatti,11.5853,78.1281,4837,42.779327392578125,3.601349630982285,0.0,4.528539071443759,Parappatti,"{""type"":""MultiPoint"",""coordinates"":[]}"
00000000000000000137,Pallappatti,11.6604,78.1369,3879,42.779327392578125,3.6268320274458277,0.0,4.573649338964924,Pallappatti,"{""type"":""MultiPoint"",""coordinates"":[]}"
00000000000000000141,Panaiyūr,9.8762,78.1564,3454,43.6648063659668,3.0766068445432144,0.0,4.324102261607604,Panaiyūr,"{""type"":""MultiPoint"",""coordinates"":[]}"
000000000000000000e5,Panamarattuppatti,11.562,78.1649,10725,42.779327392578125,3.417431427295134,0.0,4.535218780757973,Panamarattuppatti,"{""type"":""MultiPoint"",""coordinates"":[]}"
0000000000000000004e,Salem,11.65,78.1667,693236,42.779327392578125,3.455978906051939,0.0,4.5968195410936525,Salem,"{""type"":""MultiPoint"",""coordinates"":[]}"
0000000000000000003f,Gwalior,26.2125,78.1775,1069276,97.34329223632812,4.642142492103825,0.0,8.137995300075039,Gwalior,"{""type"":""MultiPoint"",""coordinates"":[]}"
00000000000000000129,Tippampatti,11.568,78.2014,4411,42.779327392578125,3.1943860974590725,0.0,4.531603790295893,Tippampatti,"{""type"":""MultiPoint"",""coordinates"":[]}"
0000000000000000015a,Chinnanūr,11.6875,78.2262,2688,42.779327392578125,2.878979066401119,0.0,4.642830124364039,Chinnanūr,"{""type"":""MultiPoint"",""coordinates"":[]}"
000000000000000000d6,Ayodhyāpattanam,11.6755,78.2409,13122,42.779327392578125,2.8522259096129816,0.0,4.635055629771403,Ayodhyāpattanam,"{""type"":""MultiPoint"",""coordinates"":[]}"
00000000000000000130,Pallippatti,11.7011,78.2428,4066,42.779327392578125,2.7688025277134147,0.0,4.644486633812654,Pallippatti,"{""type"":""MultiPoint"",""coordinates"":[]}"
0000000000000000010a,Valasaiyūr,11.7044,78.2513,6565,42.779327392578125,2.714763376787496,0.0,4.648486509468055,Valasaiyūr,"{""type"":""MultiPoint"",""coordinates"":[]}"
0000000000000000013c,Kūllampatti,11.6922,78.26,3632,42.779327392578125,2.70345409167681,0.0,4.642515279961678,Kūllampatti,"{""type"":""MultiPoint"",""coordinates"":[]}"
00000000000000000119,Sukkainpatti,11.7156,78.2626,5138,42.779327392578125,2.5851178045986525,0.0,4.6437880347013065,Sukkainpatti,"{""type"":""MultiPoint"",""coordinates"":[]}"
00000000000000000148,Wattināgulapalli,17.4179,78.293,3245,131.4451904296875,18.344696057109022,0.0,19.57099056198565,Wattināgulapalli,"{""type"":""MultiPoint"",""coordinates"":[]}"
00000000000000000128,Manchirevula,17.3833,78.35,4459,131.4451904296875,23.36710785891798,0.0,21.04470272477167,Manchirevula,"{""type"":""MultiPoint"",""coordinates"":[]}"
00000000000000000149,Himāyatsāgar,17.3399,78.3631,3244,131.4451904296875,21.620118996694785,0.0,21.546841286843797,Himāyatsāgar,"{""type"":""MultiPoint"",""coordinates"":[]}"
000000000000000000d8,Bandlagūda,17.3543,78.3853,12734,131.4451904296875,23.965040966068745,0.0,21.05050230411284,Bandlagūda,"{""type"":""MultiPoint"",""coordinates"":[]}"
00000000000000000100,Kismatpur,17.3333,78.4,7288,131.4451904296875,23.261143779647334,0.0,21.179305830537476,Kismatpur,"{""type"":""MultiPoint"",""coordinates"":[]}"
00000000000000000154,Gāgilāpur,17.6,78.4,2832,131.4451904296875,14.074115497177182,0.0,15.056295356126421,Gāgilāpur,"{""type"":""MultiPoint"",""coordinates"":[]}"
000000000000000000d5,Dundigal,17.5781,78.4288,13465,131.4451904296875,16.87457194815068,0.0,16.679454734346976,Dundigal,"{""type"":""MultiPoint"",""coordinates"":[]}"
000000000000000000ed,Māmidipalli,17.2516,78.4521,9236,116.3887710571289,16.38123185090302,0.0,19.34360315079608,Māmidipalli,"{""type"":""MultiPoint"",""coordinates"":[]}"
00000000000000000007,Hyderābād,17.3617,78.4747,7677018,131.4451904296875,26.65964588443551,0.0,19.39046082178087,Hyderābād,"{""type"":""MultiPoint"",""coordinates"":[]}"
00000000000000000073,Secunderābād,17.45,78.5,213698,131.4451904296875,27.65682660439935,2.1596031188964844,18.644568713117977,Secunderābād,"{""type"":""MultiPoint"",""coordinates"":[]}"
00000000000000000070,Alwāl,17.503,78.507,240000,131.4451904296875,24.080335061201424,0.0,19.382637163292962,Alwāl,"{""type"":""MultiPoint"",""coordinates"":[]}"
00000000000000000089,Malkājgiri,17.4483,78.5292,141175,131.4451904296875,25.72827803541362,1.6403876543045044,18.963996470508825,Malkājgiri,"{""type"":""MultiPoint"",""coordinates"":[]}"
00000000000000000118,Kambarasampettai,10.8496,78.6754,5178,40.532894134521484,3.4585778965881495,0.0,4.5521594746932115,Kambarasampettai,"{""type"":""MultiPoint"",""coordinates"":[]}"
00000000000000000045,Trichinopoly,10.8269,78.6928,916857,40.532894134521484,3.543856303150704,0.0,4.549571767656297,Trichinopoly,"{""type"":""MultiPoint"",""coordinates"":[]}"
000000000000000000f1,Gundūr,10.7339,78.7184,8587,40.532894134521484,3.2763920102552127,0.0,4.519722224035176,Gundūr,"{""type"":""MultiPoint"",""coordinates"":[]}"
00000000000000000122,Pātacudapah,14.4986,78.8335,4730,21.631980895996094,1.040370538554055,0.0,2.214075460309627,Pātacudapah,"{""type"":""MultiPoint"",""coordinates"":[]}"
00000000000000000127,Putlampalle,14.4522,78.8511,4490,21.631980895996094,1.0078248448245795,0.0,2.2516793276681413,Putlampalle,"{""type"":""MultiPoint"",""coordinates"":[]}"
00000000000000000140,Takkolu,14.4855,78.8797,3465,22.037826538085938,1.032330977321645,0.0,2.2960228116875485,Takkolu,"{""type"":""MultiPoint"",""coordinates"":[]}"
00000000000000000011,Mahuākherāganj,29.13,78.95,3198982,36.26610565185547,3.0301178621286464,0.0,3.7452795491725186,Mahuākherāganj,"{""type"":""MultiPoint"",""coordinates"":[]}"
00000000000000000016,Barmhān Kalān,23.0333,79.0167,2537000,21.171627044677734,0.9722036042546053,0.0,1.3935946841457663,Barmhān Kalān,"{""type"":""MultiPoint"",""coordinates"":[]}"
00000000000000000018,Nāgpur,21.1497,79.0806,2405665,152.75772094726562,7.688183327980419,0.0,8.867378465184133,Nāgpur,"{""type"":""MultiPoint"",""coordinates"":[]}"
00000000000000000032,Madanpur,29.326,79.1537,1260078,20.40521240234375,1.4334759160593402,0.0,1.9547407792526685,Madanpur,"{""type"":""MultiPoint"",""coordinates"":[]}"
00000000000000000031,Kamalwaganja Gaur,29.2117,79.4654,1260078,43.15628433227539,1.7873079369097045,0.0,4.362155601755819,Kamalwaganja Gaur,"{""type"":""MultiPoint"",""coordinates"":[]}"
00000000000000000012,Nagla,29.01,79.51,3198982,35.526702880859375,2.9151274991701546,0.0,4.638103613621228,Nagla,"{""type"":""MultiPoint"",""coordinates"":[]}"
000000000000000000eb,Kondaparti,17.9219,79.5373,9551,42.5659065246582,2.9388440701012395,0.0,4.275142254914722,Kondaparti,"{""type"":""MultiPoint"",""coordinates"":[]}"
00000000000000000043,Warangal,17.9756,79.6011,1005938,42.5659065246582,2.9228497025727536,0.0,4.229107070272572,Warangal,"{""type"":""MultiPoint"",""coordinates"":[]}"
00000000000000000107,Mogalcherla,18.0093,79.6613,6922,42.5659065246582,2.8180431838725406,0.0,4.182627297823612,Mogalcherla,"{""type"":""MultiPoint"",""coordinates"":[]}"
00000000000000000063,Oulgaret,11.957,79.7737,300104,35.79612731933594,2.7607183314269537,0.0,4.051280385040546,Oulgaret,"{""type"":""MultiPoint"",""coordinates"":[]}"
0000000000000000006d,Puducherry,11.93,79.83,244377,35.79612731933594,2.3805070937767208,0.0,4.139467470229727,Puducherry,"{""type"":""MultiPoint"",""coordinates"":[]}"
000000000000000000ee,Bommayapālaiyam,11.9922,79.8499,8796,35.79612731933594,2.1060122766334364,0.0,4.057420699996454,Bommayapālaiyam,"{""type"":""MultiPoint"",""coordinates"":[]}"
00000000000000000053,Sūrappattu,13.3359,79.8726,517589,40.27295684814453,1.0960368950144252,0.0,1.6333802942033588,Sūrappattu,"{""type"":""MultiPoint"",""coordinates"":[]}"
00000000000000000030,Jabalpur,23.1667,79.9333,1267564,71.33415985107422,4.8612043969107095,0.0,8.273393120890283,Jabalpur,"{""type"":""MultiPoint"",""coordinates"":[]}"
000000000000000000fd,Mevalūrkuppam,13.032,79.9995,7653,104.39215850830078,9.824769989851266,0.0,10.494376244054676,Mevalūrkuppam,"{""type"":""MultiPoint"",""coordinates"":[]}"
00000000000000000117,Kūttambākkam,13.0569,80.0275,5217,104.39215850830078,11.060281827711345,0.0,11.604783844956474,Kūttambākkam,"{""type"":""MultiPoint"",""coordinates"":[]}"
000000000000000000de,Pākkam,13.1436,80.028,11509,104.00150299072266,8.285675959674188,0.0,9.716277112221883,Pākkam,"{""type"":""MultiPoint"",""coordinates"":[]}"
0000000000000000007d,Tambaram,12.831,80.0459,182071,58.107906341552734,8.069754931689248,0.0,8.180463077791025,Tambaram,"{""type"":""MultiPoint"",""coordinates"":[]}"
000000000000000000f3,Mannivakkam,12.8884,80.0641,8424,104.39215850830078,11.562924140599455,0.0,10.887041422252619,Mannivakkam,"{""type"":""MultiPoint"",""coordinates"":[]}"
000000000000000000ff,Pālavedu,13.1547,80.0694,7467,104.00150299072266,10.328313930704235,0.0,11.321105995176937,Pālavedu,"{""type"":""MultiPoint"",""coordinates"":[]}"
000000000000000000cb,Vandalūr,12.8924,80.0808,17655,104.39215850830078,12.474394086315867,0.0,11.370419401081982,Vandalūr,"{""type"":""MultiPoint"",""coordinates"":[]}"
00000000000000000134,Agaram,13.0397,80.0808,3949,104.39215850830078,14.852352983924083,0.0,12.827967911852218,Agaram,"{""type"":""MultiPoint"",""coordinates"":[]}"
0000000000000000011f,Vellānūr,13.15,80.1,4825,514.9688110351562,12.82829235246398,0.0,17.659061132725622,Vellānūr,"{""type"":""MultiPoint"",""coordinates"":[]}"
0000000000000000004d,Āvadi,13.1147,80.1098,695000,514.9688110351562,15.415702457077801,0.0,18.90706785405495,Āvadi,"{""type"":""MultiPoint"",""coordinates"":[]}"
0000000000000000009e,Poonamallee,13.0465,80.11,56237,104.39215850830078,16.735344305838016,1.37702476978302,13.357779953528054,Poonamallee,"{""type"":""MultiPoint"",""coordinates"":[]}"
000000000000000000dd,Perumbakkam,13.0133,80.143,11551,104.39215850830078,17.62244166355171,0.0,13.281781460145766,Perumbakkam,"{""type"":""MultiPoint"",""coordinates"":[]}"
00000000000000000072,Pallāvaram,12.9677,80.1581,215417,104.39215850830078,16.745196895499117,0.0,13.584057707520508,Pallāvaram,"{""type"":""MultiPoint"",""coordinates"":[]}"
00000000000000000057,Ambattūr,13.0983,80.1622,466205,514.9688110351562,17.64402099694686,0.0,18.97432091405707,Ambattūr,"{""type"":""MultiPoint"",""coordinates"":[]}"
000000000000000000db,Mugalivakkam,13.0205,80.1653,12083,514.9688110351562,17.993535720354945,0.0,16.563801654885346,Mugalivakkam,"{""type"":""MultiPoint"",""coordinates"":[]}"
000000000000000000df,Manappakkam,13.0108,80.1686,11358,105.84669494628906,17.71500953079397,0.0,13.661562288611485,Manappakkam,"{""type"":""MultiPoint"",""coordinates"":[]}"
0000000000000000012a,Nanmangalam,12.9381,80.1753,4386,104.39215850830078,15.298972740238876,0.0,13.86785662001041,Nanmangalam,"{""type"":""MultiPoint"",""coordinates"":[]}"
0000000000000000009f,Nerkunram,13.0619,80.2094,52570,514.9688110351562,17.903290451553655,0.0,19.25487904607826,Nerkunram,"{""type"":""MultiPoint"",""coordinates"":[]}"
0000000000000000013a,Kolapakkam,12.9142,80.2294,3729,104.39215850830078,12.658729562895846,0.0,14.116630333706627,Kolapakkam,"{""type"":""MultiPoint"",""coordinates"":[]}"
00000000000000000091,Kaliānpur,26.5191,80.2498,112014,64.37326049804688,7.671060278414109,0.0,12.236100842002463,Kaliānpur,"{""type"":""MultiPoint"",""coordinates"":[]}"
00000000000000000003,Chennai,13.0825,80.275,12395000,514.9688110351562,15.24553362397351,0.0,20.00672937899431,Chennai,"{""type"":""MultiPoint"",""coordinates"":[]}"
0000000000000000006c,Tiruvottiyūr,13.1667,80.3,249446,514.9688110351562,11.708308740210374,0.0,19.09827532336088,Tiruvottiyūr,"{""type"":""MultiPoint"",""coordinates"":[]}"
0000000000000000000b,Kanpur,26.4725,80.3311,4581268,64.37326049804688,8.207706442937244,0.0,12.125741999285738,Kanpur,"{""type"":""MultiPoint"",""coordinates"":[]}"
00000000000000000050,Guntūr,16.3,80.45,670073,33.69953536987305,2.4459759039773536,0.0,3.330184515203902,Guntūr,"{""type"":""MultiPoint"",""coordinates"":[]}"
00000000000000000116,Sītānagaram,16.2403,80.5817,5447,33.69953536987305,2.1772515025573904,0.0,3.2421778603568416,Sītānagaram,"{""type"":""MultiPoint"",""coordinates"":[]}"
00000000000000000035,Vijayavāda,16.5167,80.6167,1230000,49.77263259887695,3.738174610957935,0.0,4.893839718955903,Vijayavāda,"{""type"":""MultiPoint"",""coordinates"":[]}"
00000000000000000135,Pātapādu,16.5781,80.6652,3933,49.77263259887695,3.6171965111651145,0.0,4.878344495617213,Pātapādu,"{""type"":""MultiPoint"",""coordinates"":[]}"
0000000000000000012d,Ambāpuram,16.599,80.8949,4110,19.99625587463379,1.4920398711017084,0.0,1.5182637306374474,Ambāpuram,"{""type"":""MultiPoint"",""coordinates"":[]}"
0000000000000000000f,Lucknow,26.847,80.947,3382000,102.28108215332031,13.527876856890899,0.0,15.617996675671256,Lucknow,"{""type"":""MultiPoint"",""coordinates"":[]}"
00000000000000000017,Gorakhpur,22.1688,81.6042,2500000,25.608652114868164,1.5575987918405592,0.0,1.229716624292934,Gorakhpur,"{""type"":""MultiPoint"",""coordinates"":[]}"
00000000000000000042,Raipur,21.2379,81.6337,1010087,54.57653045654297,6.980865113332176,0.0,8.00755322358166,Raipur,"{""type"":""MultiPoint"",""coordinates"":[]}"
0000000000000000005f,Rājahmundry,16.9833,81.7833,341831,25.695905685424805,1.8731467533131856,0.0,2.3595105670687286,Rājahmundry,"{""type"":""MultiPoint"",""coordinates"":[]}"
00000000000000000009,Prayagraj,25.45,81.85,5954391,72.45399475097656,5.578825983651008,0.0,8.231713778920344,Prayagraj,"{""type"":""MultiPoint"",""coordinates"":[]}"
000000000000000000e7,Nipania,21.85,82.0333,10000,34.99420166015625,1.9210417259970958,0.0,2.1298065873218355,Nipania,"{""type"":""MultiPoint"",""coordinates"":[]}"
0000000000000000005c,Kākināda,16.9333,82.2167,384182,33.76551818847656,2.014377877409188,0.0,3.1358323994338515,Kākināda,"{""type"":""MultiPoint"",""coordinates"":[]}"
00000000000000000037,Vārānasi,25.3189,83.0128,1198491,69.9402084350586,6.390097975982885,0.0,8.078534910370985,Vārānasi,"{""type"":""MultiPoint"",""coordinates"":[]}"
0000000000000000001e,Vishākhapatnam,17.6939,83.2922,2035922,165.4071502685547,5.062426986870133,0.0,9.394221793501602,Vishākhapatnam,"{""type"":""MultiPoint"",""coordinates"":[]}"
00000000000000000099,Brājarājnagar,21.82,83.92,80403,650.1268920898438,4.963296591957108,0.0,15.445831504107428,Brājarājnagar,"{""type"":""MultiPoint"",""coordinates"":[]}"
00000000000000000157,Tendua Dusādhi,24.9427,84.1299,2770,51.58308029174805,2.173040756168301,0.0,2.966081463614588,Tendua Dusādhi,"{""type"":""MultiPoint"",""coordinates"":[]}"
0000000000000000014c,Dahāur,24.9146,84.136,3186,51.58308029174805,2.234967832458264,0.0,3.1440323697689685,Dahāur,"{""type"":""MultiPoint"",""coordinates"":[]}"
00000000000000000143,Deuriya,24.953,84.1401,3439,51.58308029174805,2.108388585868801,0.0,2.673855753754971,Deuriya,"{""type"":""MultiPoint"",""coordinates"":[]}"
000000000000000000f8,Pahleza,24.9378,84.1467,7888,51.58308029174805,2.229688546938514,0.0,3.115639297324555,Pahleza,"{""type"":""MultiPoint"",""coordinates"":[]}"
0000000000000000014d,Katār,24.8818,84.1511,3149,51.58308029174805,2.2347020649497362,0.0,3.207962608801189,Katār,"{""type"":""MultiPoint"",""coordinates"":[]}"
00000000000000000142,Bhainsaha,24.8951,84.1557,3454,51.58308029174805,2.225337682391589,0.0,3.1407140811739613,Bhainsaha,"{""type"":""MultiPoint"",""coordinates"":[]}"
0000000000000000010e,Sakhara,24.9091,84.1584,6256,51.58308029174805,2.239607157904047,0.0,3.1283514365665184,Sakhara,"{""type"":""MultiPoint"",""coordinates"":[]}"
0000000000000000012e,Gobardhanpur,24.9493,84.1603,4080,51.58308029174805,2.1586052926406767,0.0,2.8056145496638996,Gobardhanpur,"{""type"":""MultiPoint"",""coordinates"":[]}"
00000000000000000111,Gangauli,24.9361,84.1728,5943,51.58308029174805,2.2454694576058487,0.0,3.123791426249667,Gangauli,"{""type"":""MultiPoint"",""coordinates"":[]}"
0000000000000000008a,Dehri,24.87,84.18,137231,51.58308029174805,2.23115345322565,0.0,3.1737402647806947,Dehri,"{""type"":""MultiPoint"",""coordinates"":[]}"
00000000000000000147,Berkap,24.9444,84.2143,3272,51.58308029174805,2.0876314741148856,0.0,2.5491374190082543,Berkap,"{""type"":""MultiPoint"",""coordinates"":[]}"
0000000000000000014b,Suara,25.0361,84.262,3234,29.35615348815918,1.8952269012214225,0.0,1.8492127151496605,Suara,"{""type"":""MultiPoint"",""coordinates"":[]}"
000000000000000000ad,Nāsriganj,25.05,84.3333,27490,18.69915008544922,1.5477757048613459,0.0,1.10131915057116,Nāsriganj,"{""type"":""MultiPoint"",""coordinates"":[]}"
000000000000000000f2,Pachrukhi,26.1593,84.4087,8508,22.3023681640625,1.7507046596074987,0.0,1.3589634112437594,Pachrukhi,"{""type"":""MultiPoint"",""coordinates"":[]}"
000000000000000000b8,Mahārājgani,26.1075,84.5025,24282,22.3023681640625,1.7356096648692365,0.0,1.3048947905879722,Mahārājgani,"{""type"":""MultiPoint"",""coordinates"":[]}"
000000000000000000ea,Masar,25.5577,84.5767,9613,38.95252990722656,2.2536976333409307,0.0,2.710563489809727,Masar,"{""type"":""MultiPoint"",""coordinates"":[]}"
00000000000000000125,Keshopur,25.5148,84.67,4559,38.95252990722656,2.462844257092657,0.0,2.7880940028016887,Keshopur,"{""type"":""MultiPoint"",""coordinates"":[]}"
00000000000000000068,Arrah,25.5631,84.6711,261430,38.95252990722656,2.3750930572341127,0.0,2.8741643142895312,Arrah,"{""type"":""MultiPoint"",""coordinates"":[]}"
0000000000000000002e,Madārpur,26.227,84.6746,1367765,15.342768669128418,1.6334618268349261,0.0,0.7244270388980684,Madārpur,"{""type"":""MultiPoint"",""coordinates"":[]}"
0000000000000000010b,Jogta,25.4884,84.7055,6498,38.95252990722656,2.528186258349421,0.0,2.846646338570414,Jogta,"{""type"":""MultiPoint"",""coordinates"":[]}"
000000000000000000d4,Jamira,25.5535,84.7063,13469,38.95252990722656,2.5462013962628625,0.0,2.899519851498011,Jamira,"{""type"":""MultiPoint"",""coordinates"":[]}"
00000000000000000074,Chāpra,25.7808,84.7308,212955,24.64491844177246,1.7815641312260175,0.0,1.7372567431699624,Chāpra,"{""type"":""MultiPoint"",""coordinates"":[]}"
00000000000000000112,Giddha,25.588,84.7472,5728,38.95252990722656,2.585553999603396,0.0,2.9487413776042137,Giddha,"{""type"":""MultiPoint"",""coordinates"":[]}"
0000000000000000005e,Brahmapur,19.32,84.78,355823,41.32637405395508,2.155786147505795,0.0,3.7543243715926558,Brahmapur,"{""type"":""MultiPoint"",""coordinates"":[]}"
000000000000000000b2,Koelwār,25.5805,84.7975,26304,38.95252990722656,2.7555606071085625,0.0,2.957663581172566,Koelwār,"{""type"":""MultiPoint"",""coordinates"":[]}"
00000000000000000052,Raurkela,22.2492,84.8828,552970,57.28183364868164,2.5206404626323193,0.0,5.792983653627571,Raurkela,"{""type"":""MultiPoint"",""coordinates"":[]}"
00000000000000000056,Gaya,24.75,85.0167,474093,47.5931282043457,2.996979555355752,0.0,4.294838820410296,Gaya,"{""type"":""MultiPoint"",""coordinates"":[]}"
0000000000000000007c,Dinapore,25.6333,85.05,182241,95.39838409423828,7.823767932640784,0.0,12.718844990646119,Dinapore,"{""type"":""MultiPoint"",""coordinates"":[]}"
000000000000000000a7,Khagaul,25.58,85.05,34364,95.39838409423828,7.787443879910408,0.0,12.638829590121292,Khagaul,"{""type"":""MultiPoint"",""coordinates"":[]}"
0000000000000000001c,Patna,25.61,85.1414,2046652,95.39838409423828,8.340406658909478,0.0,12.746406973619521,Patna,"{""type"":""MultiPoint"",""coordinates"":[]}"
00000000000000000087,Hājīpur,25.68,85.22,147688,95.39838409423828,7.868435119468066,0.0,12.774620207791342,Hājīpur,"{""type"":""MultiPoint"",""coordinates"":[]}"
000000000000000000fb,Pithauriā,23.518,85.2918,7674,53.52621841430664,4.410443318233726,0.0,7.445238538518654,Pithauriā,"{""type"":""MultiPoint"",""coordinates"":[]}"
00000000000000000160,Bhagwatpur Patera,25.858,85.296,2508,33.55477523803711,2.2937880900791505,0.0,2.052621257616754,Bhagwatpur Patera,"{""type"":""MultiPoint"",""coordinates"":[]}"
000000000000000000ac,Kantai,26.2142,85.2975,27549,51.157962799072266,3.1692160900811768,0.0,4.293935655242116,Kantai,"{""type"":""MultiPoint"",""coordinates"":[]}"
00000000000000000153,Bhagwānpur,25.8601,85.2997,2840,28.156965255737305,2.265716401019133,0.0,1.877421838154298,Bhagwānpur,"{""type"":""MultiPoint"",""coordinates"":[]}"
000000000000000000be,Kānke,23.4348,85.3206,21650,72.19751739501953,5.4887226929923285,0.0,8.111509434021668,Kānke,"{""type"":""MultiPoint"",""coordinates"":[]}"
0000000000000000003e,Rānchi,23.3556,85.3347,1073440,72.19751739501953,5.505054116616719,0.0,8.114060843175583,Rānchi,"{""type"":""MultiPoint"",""coordinates"":[]}"
000000000000000000bf,Rāja Pākar,25.735,85.3376,21644,64.06798553466797,3.2957777872627902,0.0,4.919929486170395,Rāja Pākar,"{""type"":""MultiPoint"",""coordinates"":[]}"
00000000000000000060,Muzaffarpur,26.12,85.3833,333200,51.157962799072266,3.24461947527402,0.0,4.276225293931077,Muzaffarpur,"{""type"":""MultiPoint"",""coordinates"":[]}"
000000000000000000cf,Khusropur,25.4817,85.3849,16109,64.06798553466797,2.525718217102908,0.0,3.7157606372569965,Khusropur,"{""type"":""MultiPoint"",""coordinates"":[]}"
000000000000000000da,Desri,25.6691,85.4082,12324,64.06798553466797,2.7364796755587677,0.0,3.984567284286991,Desri,"{""type"":""MultiPoint"",""coordinates"":[]}"
00000000000000000109,Sahdai Buzurg,25.6622,85.4597,6823,64.06798553466797,1.8499544954853777,0.0,1.9885009039720174,Sahdai Buzurg,"{""type"":""MultiPoint"",""coordinates"":[]}"
00000000000000000094,Sītāmarhi,26.6,85.48,106093,24.354564666748047,1.7443840131926547,0.0,1.6579244030611706,Sītāmarhi,"{""type"":""MultiPoint"",""coordinates"":[]}"
000000000000000000c6,Dumra,26.5671,85.5204,19186,24.354564666748047,1.7406976630478805,0.0,1.5823995405589553,Dumra,"{""type"":""MultiPoint"",""coordinates"":[]}"
00000000000000000078,Puri,19.8,85.8167,201026,65.09595489501953,1.2435389307002906,0.0,3.9138886679834113,Puri,"{""type"":""MultiPoint"",""coordinates"":[]}"
00000000000000000047,Bhubaneshwar,20.295,85.825,837737,57.480831146240234,6.079429819859477,0.0,7.866383854145812,Bhubaneshwar,"{""type"":""MultiPoint"",""coordinates"":[]}"
000000000000000000af,Dalsingh Sarai,25.668,85.8364,26658,15.166441917419434,1.7794687467356225,0.0,1.115510520215572,Dalsingh Sarai,"{""type"":""MultiPoint"",""coordinates"":[]}"
00000000000000000065,Darbhanga,26.157,85.8995,296039,34.35498046875,2.224240958646386,0.0,3.010313491426826,Darbhanga,"{""type"":""MultiPoint"",""coordinates"":[]}"
000000000000000000dc,Khānpur,25.8572,85.933,12066,34.91972351074219,1.9548337661302255,0.0,1.9003191453112656,Khānpur,"{""type"":""MultiPoint"",""coordinates"":[]}"
000000000000000000b3,Bāruni,25.4751,85.9681,26117,148.07139587402344,3.26367653497762,0.0,7.535234629097334,Bāruni,"{""type"":""MultiPoint"",""coordinates"":[]}"
000000000000000000e1,Chhabila,26.2477,85.9927,11054,34.35498046875,2.497648505066242,0.0,3.1872537192745938,Chhabila,"{""type"":""MultiPoint"",""coordinates"":[]}"
00000000000000000114,Muria,26.2028,86.0083,5594,34.35498046875,2.5390370985800246,0.0,3.197705370243208,Muria,"{""type"":""MultiPoint"",""coordinates"":[]}"
00000000000000000103,Narpatnagar,26.1987,86.0426,7186,34.35498046875,2.583073532798815,0.0,3.207047069324289,Narpatnagar,"{""type"":""MultiPoint"",""coordinates"":[]}"
000000000000000000ca,Ulao,25.4165,86.0936,18020,148.07139587402344,3.3304887292474628,0.0,7.569000151281283,Ulao,"{""type"":""MultiPoint"",""coordinates"":[]}"
000000000000000000e8,Bhawānīpur,26.2385,86.0995,9971,23.506330490112305,2.104782420121924,0.0,1.6120881320206029,Bhawānīpur,"{""type"":""MultiPoint"",""coordinates"":[]}"
000000000000000000f5,Singhaul,25.4375,86.1,8286,148.07139587402344,3.3495553851322204,0.0,7.562994174622455,Singhaul,"{""type"":""MultiPoint"",""coordinates"":[]}"
0000000000000000006a,Begusarai,25.42,86.13,252008,148.07139587402344,3.2646530882633686,0.0,7.542588348489604,Begusarai,"{""type"":""MultiPoint"",""coordinates"":[]}"
000000000000000000d2,Garhpura,25.6638,86.1818,14741,15.555122375488281,1.4432405938154131,0.0,1.0023328732967753,Garhpura,"{""type"":""MultiPoint"",""coordinates"":[]}"
00000000000000000051,Jamshedpur,22.8,86.1833,629659,274.8820495605469,5.287190736641301,0.0,12.344710150486025,Jamshedpur,"{""type"":""MultiPoint"",""coordinates"":[]}"
0000000000000000010f,Hasanpur,25.7079,86.192,6177,15.555122375488281,1.371610601607294,0.0,0.9939767808018966,Hasanpur,"{""type"":""MultiPoint"",""coordinates"":[]}"
000000000000000000e3,Nao Kothi,25.5196,86.1954,10946,148.07139587402344,2.7963938213493447,0.0,7.0095802912071035,Nao Kothi,"{""type"":""MultiPoint"",""coordinates"":[]}"
00000000000000000136,Andauli,26.0846,86.2105,3894,14.192971229553223,1.5953736735833925,0.0,0.9856623051490522,Andauli,"{""type"":""MultiPoint"",""coordinates"":[]}"
000000000000000000cc,Lakhnaur,26.202,86.309,17442,14.192971229553223,1.624190629309706,0.0,0.8913088171505852,Lakhnaur,"{""type"":""MultiPoint"",""coordinates"":[]}"
0000000000000000013f,Kasiām,26.1862,86.311,3480,14.192971229553223,1.5843703307883903,0.0,0.9054970354106767,Kasiām,"{""type"":""MultiPoint"",""coordinates"":[]}"
000000000000000000b5,Sāhibpur Kamāl,25.4167,86.3901,25128,40.627586364746094,1.7406449437945901,0.0,2.989570548349715,Sāhibpur Kamāl,"{""type"":""MultiPoint"",""coordinates"":[]}"
0000000000000000000c,Belāhi,25.7167,86.4,4487379,12.15988540649414,0.9418511044712453,0.0,0.8000445769185662,Belāhi,"{""type"":""MultiPoint"",""coordinates"":[]}"
000000000000000000f7,Harilādih,23.7333,86.4,7917,69.60919189453125,4.800925682171153,0.0,5.870116667340429,Harilādih,"{""type"":""MultiPoint"",""coordinates"":[]}"
000000000000000000a3,Kendrāparha,20.5,86.4167,41404,18.487794876098633,1.2610130954997336,0.0,1.0978383876873066,Kendrāparha,"{""type"":""MultiPoint"",""coordinates"":[]}"
0000000000000000003b,Dhanbād,23.7928,86.435,1162472,69.60919189453125,4.4252903714376615,0.0,5.544034966587282,Dhanbād,"{""type"":""MultiPoint"",""coordinates"":[]}"
00000000000000000095,Jamālpur,25.3,86.5,105221,40.627586364746094,1.3706246114508187,0.0,2.8070371234125573,Jamālpur,"{""type"":""MultiPoint"",""coordinates"":[]}"
0000000000000000008e,Baripāda,21.935,86.7214,116874,20.6193790435791,0.5775674431425966,0.0,1.6144965649575445,Baripāda,"{""type"":""MultiPoint"",""coordinates"":[]}"
00000000000000000062,Kulti,23.73,86.8399,313809,221.2736053466797,4.376363730684572,0.0,7.586985980728226,Kulti,"{""type"":""MultiPoint"",""coordinates"":[]}"
0000000000000000008d,Balasore,21.5033,86.925,118162,55.93060302734375,1.8899929393818629,0.0,2.9613036940361233,Balasore,"{""type"":""MultiPoint"",""coordinates"":[]}"
00000000000000000034,Āsansol,23.6833,86.9667,1243414,221.2736053466797,5.2047165645164455,0.0,8.046641865299554,Āsansol,"{""type"":""MultiPoint"",""coordinates"":[]}"
00000000000000000121,Babura,25.0851,87.1092,4755,26.459810256958008,1.669324318879842,0.0,1.5174961558678655,Babura,"{""type"":""MultiPoint"",""coordinates"":[]}"
00000000000000000075,Kharagpur,22.3302,87.3237,207604,56.179569244384766,2.7859310030340105,0.0,4.623887453559185,Kharagpur,"{""type"":""MultiPoint"",""coordinates"":[]}"
0000000000000000009c,Siuri,23.9167,87.5333,67864,51.079566955566406,1.4662796873656077,0.0,2.2612687893714356,Siuri,"{""type"":""MultiPoint"",""coordinates"":[]}"
0000000000000000006f,Katihār,25.5385,87.5704,240565,35.94643783569336,1.3723969911940315,0.0,2.4865978874617443,Katihār,"{""type"":""MultiPoint"",""coordinates"":[]}"
000000000000000000ce,Usmānpur,24.7367,87.8676,17085,30.41316032409668,1.542657102007975,0.0,2.327597310365181,Usmānpur,"{""type"":""MultiPoint"",""coordinates"":[]}"
00000000000000000152,Rānipur,24.7442,87.8686,2844,30.41316032409668,1.5383051644219359,0.0,2.331629720473227,Rānipur,"{""type"":""MultiPoint"",""coordinates"":[]}"
000000000000000000b4,Kola,22.43,87.87,25191,30.981220245361328,1.9504635882366945,0.0,2.476913831450456,Kola,"{""type"":""MultiPoint"",""coordinates"":[]}"
0000000000000000012b,Tildānga,24.7893,87.8765,4378,30.41316032409668,1.4987341628463442,0.0,2.3261452046308113,Tildānga,"{""type"":""MultiPoint"",""coordinates"":[]}"
000000000000000000f4,Palāsgāchi,24.9833,87.9,8303,19.442190170288086,0.8977219466725603,0.0,1.1752214897034465,Palāsgāchi,"{""type"":""MultiPoint"",""coordinates"":[]}"
00000000000000000102,Ballālpur,24.7386,87.9083,7217,30.41316032409668,1.5959307809416363,0.0,2.3411724686206123,Ballālpur,"{""type"":""MultiPoint"",""coordinates"":[]}"
0000000000000000009d,Tamlūk,22.3,87.9167,65306,30.819700241088867,1.7193091807077274,0.0,2.0399149469386284,Tamlūk,"{""type"":""MultiPoint"",""coordinates"":[]}"
00000000000000000106,Imamnagar,24.745,87.9247,6933,30.41316032409668,1.5839270458496382,0.0,2.3469876219688253,Imamnagar,"{""type"":""MultiPoint"",""coordinates"":[]}"
00000000000000000156,Bartala,24.7082,87.9555,2814,30.41316032409668,1.5793112255576398,0.0,2.3498806058877753,Bartala,"{""type"":""MultiPoint"",""coordinates"":[]}"
00000000000000000105,Jājigrām,24.4724,87.9589,6977,52.619712829589844,1.2881878390676356,0.0,2.3382601799229494,Jājigrām,"{""type"":""MultiPoint"",""coordinates"":[]}"
000000000000000000fc,Hilora,24.5055,87.9661,7667,31.30945587158203,1.311305636734945,0.0,1.8714754340211213,Hilora,"{""type"":""MultiPoint"",""coordinates"":[]}"
00000000000000000097,Dhuliān,24.68,87.97,95706,30.41316032409668,1.5358734203887205,0.0,2.3449368989647295,Dhuliān,"{""type"":""MultiPoint"",""coordinates"":[]}"
000000000000000000e2,Bāgnān,22.47,87.97,10996,30.981220245361328,2.4672917558584966,0.0,2.8253171149210603,Bāgnān,"{""type"":""MultiPoint"",""coordinates"":[]}"
00000000000000000158,Sikdārpur,24.6463,87.9781,2691,30.41316032409668,1.4977128155298018,0.0,2.3487228633390385,Sikdārpur,"{""type"":""MultiPoint"",""coordinates"":[]}"
00000000000000000146,Jālādipur,24.6356,87.9902,3319,30.41316032409668,1.433349064745586,0.0,2.297436101747723,Jālādipur,"{""type"":""MultiPoint"",""coordinates"":[]}"
000000000000000000f6,Raghunandanpur,24.468,88.054,8005,52.619712829589844,1.1834022380589437,0.0,2.3930722989773696,Raghunandanpur,"{""type"":""MultiPoint"",""coordinates"":[]}"
000000000000000000f0,Mahadipur,24.8566,88.1248,8638,29.283414840698242,1.414021247690354,0.0,2.623313617564494,Mahadipur,"{""type"":""MultiPoint"",""coordinates"":[]}"
000000000000000000a5,Pujali,22.4601,88.134,37047,105.13701629638672,5.350259590463458,0.0,8.070546213534133,Pujali,"{""type"":""MultiPoint"",""coordinates"":[]}"
000000000000000000b0,Pānchla,22.54,88.14,26432,105.13701629638672,6.632150295549224,0.0,9.868265420919005,Pānchla,"{""type"":""MultiPoint"",""coordinates"":[]}"
0000000000000000009a,Baj Baj,22.4737,88.1739,76837,105.13701629638672,7.9699644817512745,0.0,12.10401382037597,Baj Baj,"{""type"":""MultiPoint"",""coordinates"":[]}"
000000000000000000a2,Diamond Harbour,22.1927,88.1895,41802,289.9259948730469,3.535632702039695,0.0,12.212268143307222,Diamond Harbour,"{""type"":""MultiPoint"",""coordinates"":[]}"
00000000000000000138,Baniara,22.6008,88.2121,3834,105.13701629638672,12.386863397147504,0.0,15.901730611647466,Baniara,"{""type"":""MultiPoint"",""coordinates"":[]}"
000000000000000000c8,Dumjor,22.64,88.22,18433,105.13701629638672,12.01644099304683,0.0,15.499854591099506,Dumjor,"{""type"":""MultiPoint"",""coordinates"":[]}"
000000000000000000ab,Sānkrāil,22.57,88.24,29114,105.13701629638672,15.04420438775355,0.0,17.1255097753148,Sānkrāil,"{""type"":""MultiPoint"",""coordinates"":[]}"
000000000000000000e6,Begampur,22.74,88.24,10487,62.009521484375,7.507397185574846,0.0,8.782872903139307,Begampur,"{""type"":""MultiPoint"",""coordinates"":[]}"
00000000000000000079,Baharampur,24.1,88.25,195223,25.55859375,1.704187772393828,0.0,2.4648153642875643,Baharampur,"{""type"":""MultiPoint"",""coordinates"":[]}"
00000000000000000133,Chanditala,22.6909,88.2662,3984,105.13701629638672,12.85372742614476,0.0,15.531036280929346,Chanditala,"{""type"":""MultiPoint"",""coordinates"":[]}"
0000000000000000003d,Hāora,22.58,88.3294,1077075,107.9158935546875,19.17029715760884,0.0,17.39929548539946,Hāora,"{""type"":""MultiPoint"",""coordinates"":[]}"
0000000000000000007e,Shrīrāmpur,22.75,88.34,181842,93.83283996582031,11.217434244109745,0.0,12.709675261544692,Shrīrāmpur,"{""type"":""MultiPoint"",""coordinates"":[]}"
00000000000000000082,Chandannagar,22.8671,88.3674,166867,35.93785858154297,6.120803464988937,0.0,6.256263413194232,Chandannagar,"{""type"":""MultiPoint"",""coordinates"":[]}"
00000000000000000001,Kolkāta,22.5675,88.37,21747000,107.9158935546875,19.08790851408188,0.0,17.40855622868096,Kolkāta,"{""type"":""MultiPoint"",""coordinates"":[]}"
0000000000000000005d,Pānihāti,22.69,88.37,377347,107.9158935546875,16.475399680458146,0.0,16.9741643147693,Pānihāti,"{""type"":""MultiPoint"",""coordinates"":[]}"
00000000000000000061,Kāmārhāti,22.67,88.37,330211,107.9158935546875,17.53717557790316,0.0,17.241480605232784,Kāmārhāti,"{""type"":""MultiPoint"",""coordinates"":[]}"
0000000000000000008f,Titāgarh,22.74,88.37,116541,93.83283996582031,12.54532115130978,0.0,14.245686127207376,Titāgarh,"{""type"":""MultiPoint"",""coordinates"":[]}"
00000000000000000085,Bārākpur,22.7642,88.3776,152783,93.83283996582031,10.58577439548174,0.0,11.874995951212949,Bārākpur,"{""type"":""MultiPoint"",""coordinates"":[]}"
00000000000000000093,Khardah,22.72,88.38,108496,107.9158935546875,14.209720242913095,0.0,15.572498807022098,Khardah,"{""type"":""MultiPoint"",""coordinates"":[]}"
0000000000000000007f,Hugli,22.9089,88.3967,179931,35.93785858154297,5.013448928801369,0.0,5.4371802844947545,Hugli,"{""type"":""MultiPoint"",""coordinates"":[]}"
00000000000000000058,Salt Lake City,22.61,88.4,403316,107.9158935546875,19.207855590990423,0.0,17.392092954194204,Salt Lake City,"{""type"":""MultiPoint"",""coordinates"":[]}"
00000000000000000096,Bānsbāria,22.97,88.4,103920,30.80555534362793,3.97246580132191,0.0,4.579067874217062,Bānsbāria,"{""type"":""MultiPoint"",""coordinates"":[]}"
0000000000000000005b,Bhātpāra,22.8664,88.4011,386019,35.93785858154297,6.304243870578364,0.0,6.431058485321522,Bhātpāra,"{""type"":""MultiPoint"",""coordinates"":[]}"
00000000000000000066,Chunchura,22.8956,88.4025,288090,35.93785858154297,5.3445724394849,0.0,5.746597951848141,Chunchura,"{""type"":""MultiPoint"",""coordinates"":[]}"
00000000000000000090,Dam Dam,22.637,88.4121,114786,107.9158935546875,18.29794452689185,0.0,17.63497970196148,Dam Dam,"{""type"":""MultiPoint"",""coordinates"":[]}"
00000000000000000110,Dīgnagar,23.3283,88.4469,6023,24.434532165527344,1.8504492011213565,0.0,2.307619297377282,Dīgnagar,"{""type"":""MultiPoint"",""coordinates"":[]}"
00000000000000000084,Krishnanagar,23.4,88.5,153062,22.63900375366211,1.5538595760626142,0.0,1.962995624195182,Krishnanagar,"{""type"":""MultiPoint"",""coordinates"":[]}"
00000000000000000019,Guwāhāti,26.1806,91.7502,2376654,82.6241683959961,3.442574340351199,0.0,5.580104589211751,Guwāhāti,"{""type"":""MultiPoint"",""coordinates"":[]}"
0000000000000000004b,Dispur,26.15,91.77,734577,82.6241683959961,3.417706573286942,0.0,5.58757667679959,Dispur,"{""type"":""MultiPoint"",""coordinates"":[]}"
00000000000000000088,Shillong,25.5744,91.8789,143229,28.154254913330078,1.0106879070146428,0.0,2.178767186012658,Shillong,"{""type"":""MultiPoint"",""coordinates"":[]}"
00000000000000000067,Imphāl,24.82,93.95,268243,26.6535587310791,2.001109122868739,0.0,2.660732893531542,Imphāl,"{""type"":""MultiPoint"",""coordinates"":[]}"
00000000000000000161,Jotsema,25.6736,94.0625,2458,19.221458435058594,0.4514113822185085,0.0,1.2366705252809205,Jotsema,"{""type"":""MultiPoint"",""coordinates"":[]}"
